[{"pk": 3, "model": "django_ukgeo.place", "fields": {"lat": 51.43933, "lng": -2.003884, "name": "Calne", "label": "Calne, Wiltshire SN11"}}, {"pk": 4, "model": "django_ukgeo.place", "fields": {"lat": 53.04304, "lng": -2.992494, "name": "Wrexham", "label": "Wrexham"}}, {"pk": 5, "model": "django_ukgeo.place", "fields": {"lat": 51.5474028, "lng": 0.6472769, "name": "Leigh-on-Sea", "label": "Leigh-on-Sea"}}, {"pk": 6, "model": "django_ukgeo.place", "fields": {"lat": 52.511099, "lng": -1.169583, "name": "Ashby Magna", "label": "Ashby Magna, Leicestershire LE17"}}, {"pk": 7, "model": "django_ukgeo.place", "fields": {"lat": 53.321624, "lng": -1.261221, "name": "Harthill", "label": "Harthill, South Yorkshire"}}, {"pk": 8, "model": "django_ukgeo.place", "fields": {"lat": 51.2787075, "lng": 0.5217254, "name": "Kent", "label": "Kent"}}, {"pk": 9, "model": "django_ukgeo.place", "fields": {"lat": 51.654465, "lng": -0.081814, "name": "Enfield", "label": "Enfield, Greater London"}}, {"pk": 10, "model": "django_ukgeo.place", "fields": {"lat": 50.766936, "lng": -0.846699, "name": "Earnley", "label": "Earnley, West Sussex PO20"}}, {"pk": 11, "model": "django_ukgeo.place", "fields": {"lat": 51.230751, "lng": -2.320096, "name": "Frome", "label": "Frome, Somerset BA11"}}, {"pk": 12, "model": "django_ukgeo.place", "fields": {"lat": 51.480818, "lng": 0.174675, "name": "Erith", "label": "Erith, Greater London"}}, {"pk": 13, "model": "django_ukgeo.place", "fields": {"lat": 53.9690089, "lng": -2.6276908, "name": "Lancashire", "label": "Lancashire"}}, {"pk": 14, "model": "django_ukgeo.place", "fields": {"lat": 51.8598535, "lng": -4.2608531, "name": "Carmarthenshire", "label": "Carmarthenshire"}}, {"pk": 15, "model": "django_ukgeo.place", "fields": {"lat": 51.880087, "lng": 0.5509269, "name": "Braintree", "label": "Braintree, Essex"}}, {"pk": 16, "model": "django_ukgeo.place", "fields": {"lat": 51.6651732, "lng": -3.7716484, "name": "Neath Port Talbot", "label": "Neath Port Talbot"}}, {"pk": 17, "model": "django_ukgeo.place", "fields": {"lat": 53.039316, "lng": -2.918998, "name": "Wrexham Industrial Estate", "label": "Wrexham Industrial Estate, Wrexham"}}, {"pk": 18, "model": "django_ukgeo.place", "fields": {"lat": 51.205965, "lng": 0.939579, "name": "Bilting", "label": "Bilting, Kent TN25"}}, {"pk": 19, "model": "django_ukgeo.place", "fields": {"lat": 50.7390661, "lng": -2.3382346, "name": "Dorset", "label": "Dorset"}}, {"pk": 20, "model": "django_ukgeo.place", "fields": {"lat": 51.531456, "lng": -2.4547158, "name": "South Gloucestershire", "label": "South Gloucestershire"}}, {"pk": 21, "model": "django_ukgeo.place", "fields": {"lat": 51.491054, "lng": -2.104103, "name": "Kington Langley", "label": "Kington Langley, Wiltshire SN15"}}, {"pk": 22, "model": "django_ukgeo.place", "fields": {"lat": 52.717011, "lng": -1.051701, "name": "East Goscote", "label": "East Goscote, Leicestershire LE7"}}, {"pk": 23, "model": "django_ukgeo.place", "fields": {"lat": 53.595024, "lng": -2.297151, "name": "Bury", "label": "Bury"}}, {"pk": 24, "model": "django_ukgeo.place", "fields": {"lat": 51.8031689, "lng": -0.208661, "name": "Welwyn Garden City", "label": "Welwyn Garden City, Hertfordshire"}}, {"pk": 25, "model": "django_ukgeo.place", "fields": {"lat": 51.5158, "lng": 0.3663699, "name": "Orsett", "label": "Orsett, Thurrock"}}, {"pk": 26, "model": "django_ukgeo.place", "fields": {"lat": 50.999041, "lng": -0.106333, "name": "Haywards Heath", "label": "Haywards Heath, West Sussex"}}, {"pk": 28, "model": "django_ukgeo.place", "fields": {"lat": 51.8642449, "lng": -2.238156, "name": "Gloucester", "label": "Gloucester"}}, {"pk": 29, "model": "django_ukgeo.place", "fields": {"lat": 52.4750743, "lng": -1.829833, "name": "West Midlands", "label": "West Midlands"}}, {"pk": 30, "model": "django_ukgeo.place", "fields": {"lat": 51.5112139, "lng": -0.1198244, "name": "London", "label": "London"}}, {"pk": 31, "model": "django_ukgeo.place", "fields": {"lat": 51.654066, "lng": -3.027569, "name": "Cwmbran", "label": "Cwmbran, Torfaen NP44"}}, {"pk": 33, "model": "django_ukgeo.place", "fields": {"lat": 50.725834, "lng": -3.910826, "name": "South Zeal", "label": "South Zeal, Devon EX20"}}, {"pk": 34, "model": "django_ukgeo.place", "fields": {"lat": 51.504286, "lng": -3.576945, "name": "Bridgend", "label": "Bridgend"}}, {"pk": 36, "model": "django_ukgeo.place", "fields": {"lat": 51.5459269, "lng": 0.7077123, "name": "Southend-on-Sea", "label": "Southend-on-Sea"}}, {"pk": 37, "model": "django_ukgeo.place", "fields": {"lat": 51.016684, "lng": -4.206666, "name": "Bideford", "label": "Bideford, Devon"}}, {"pk": 39, "model": "django_ukgeo.place", "fields": {"lat": 51.593722, "lng": -2.40123, "name": "Wickwar", "label": "Wickwar, South Gloucestershire"}}, {"pk": 40, "model": "django_ukgeo.place", "fields": {"lat": 54.6836384, "lng": -1.8201775, "name": "County Durham", "label": "County Durham"}}, {"pk": 41, "model": "django_ukgeo.place", "fields": {"lat": 50.9285982, "lng": 0.2764899, "name": "East Sussex", "label": "East Sussex"}}, {"pk": 42, "model": "django_ukgeo.place", "fields": {"lat": 50.599282, "lng": -4.437696, "name": "Lewannick", "label": "Lewannick, Cornwall PL15"}}, {"pk": 44, "model": "django_ukgeo.place", "fields": {"lat": 51.5498444, "lng": -2.4646068, "name": "Iron Acton", "label": "Iron Acton, South Gloucestershire BS37"}}, {"pk": 45, "model": "django_ukgeo.place", "fields": {"lat": 51.4528837, "lng": -0.973906, "name": "Reading", "label": "Reading"}}, {"pk": 46, "model": "django_ukgeo.place", "fields": {"lat": 53.4326035, "lng": -1.3635009, "name": "Rotherham", "label": "Rotherham, South Yorkshire"}}, {"pk": 48, "model": "django_ukgeo.place", "fields": {"lat": 50.9097004, "lng": -1.4043509, "name": "Southampton", "label": "Southampton"}}, {"pk": 49, "model": "django_ukgeo.place", "fields": {"lat": 53.197787, "lng": -3.1599793, "name": "Flintshire", "label": "Flintshire"}}, {"pk": 50, "model": "django_ukgeo.place", "fields": {"lat": 52.5863179, "lng": -1.1063539, "name": "Wigston", "label": "Wigston, Leicestershire"}}, {"pk": 52, "model": "django_ukgeo.place", "fields": {"lat": 51.7659078, "lng": 0.6673665, "name": "Essex", "label": "Essex"}}, {"pk": 53, "model": "django_ukgeo.place", "fields": {"lat": 54.2503595, "lng": -1.4708553, "name": "North Yorkshire", "label": "North Yorkshire"}}, {"pk": 55, "model": "django_ukgeo.place", "fields": {"lat": 51.2868939, "lng": -0.752615, "name": "Farnborough", "label": "Farnborough, Hampshire"}}, {"pk": 56, "model": "django_ukgeo.place", "fields": {"lat": 51.53889, "lng": 0.14743, "name": "Dagenham", "label": "Dagenham, Greater London"}}, {"pk": 57, "model": "django_ukgeo.place", "fields": {"lat": 53.966324, "lng": -1.482574, "name": "Follifoot", "label": "Follifoot, North Yorkshire HG3"}}, {"pk": 58, "model": "django_ukgeo.place", "fields": {"lat": 51.7612056, "lng": -1.2464674, "name": "Oxfordshire", "label": "Oxfordshire"}}, {"pk": 60, "model": "django_ukgeo.place", "fields": {"lat": 51.370922, "lng": 1.127771, "name": "Herne Bay", "label": "Herne Bay, Kent"}}, {"pk": 61, "model": "django_ukgeo.place", "fields": {"lat": 57.477773, "lng": -4.224721, "name": "Inverness", "label": "Inverness, Highland"}}, {"pk": 62, "model": "django_ukgeo.place", "fields": {"lat": 52.633584, "lng": -1.691032, "name": "Tamworth", "label": "Tamworth, Staffordshire"}}, {"pk": 64, "model": "django_ukgeo.place", "fields": {"lat": 52.2671353, "lng": -1.4675216, "name": "Warwickshire", "label": "Warwickshire"}}, {"pk": 65, "model": "django_ukgeo.place", "fields": {"lat": 51.476798, "lng": -0.966547, "name": "Caversham", "label": "Caversham, Reading RG4"}}, {"pk": 66, "model": "django_ukgeo.place", "fields": {"lat": 51.4409659, "lng": -2.7426528, "name": "North Somerset", "label": "North Somerset"}}, {"pk": 67, "model": "django_ukgeo.place", "fields": {"lat": 53.092664, "lng": -3.003691, "name": "Llay", "label": "Llay, Wrexham"}}, {"pk": 69, "model": "django_ukgeo.place", "fields": {"lat": 50.71505, "lng": -1.987248, "name": "Poole", "label": "Poole"}}, {"pk": 70, "model": "django_ukgeo.place", "fields": {"lat": 52.5864845, "lng": -2.7037501, "name": "Shropshire", "label": "Shropshire"}}, {"pk": 71, "model": "django_ukgeo.place", "fields": {"lat": 51.0781599, "lng": -4.058338, "name": "Barnstaple", "label": "Barnstaple, Devon"}}, {"pk": 73, "model": "django_ukgeo.place", "fields": {"lat": 55.864237, "lng": -4.251806, "name": "Glasgow City", "label": "Glasgow, Glasgow City"}}, {"pk": 74, "model": "django_ukgeo.place", "fields": {"lat": 50.813424, "lng": -0.743891, "name": "Runcton", "label": "Runcton, West Sussex PO20"}}, {"pk": 76, "model": "django_ukgeo.place", "fields": {"lat": 51.145368, "lng": 0.833236, "name": "Great Chart", "label": "Great Chart, Kent TN23"}}, {"pk": 77, "model": "django_ukgeo.place", "fields": {"lat": 55.92534, "lng": -4.4558289, "name": "Old Kilpatrick", "label": "Old Kilpatrick, West Dunbartonshire"}}, {"pk": 78, "model": "django_ukgeo.place", "fields": {"lat": 53.406754, "lng": -2.158843, "name": "Stockport", "label": "Stockport"}}, {"pk": 80, "model": "django_ukgeo.place", "fields": {"lat": 52.486243, "lng": -1.890401, "name": "Birmingham", "label": "Birmingham, West Midlands"}}, {"pk": 82, "model": "django_ukgeo.place", "fields": {"lat": 55.862241, "lng": -4.019337, "name": "Coatbridge", "label": "Coatbridge, North Lanarkshire"}}, {"pk": 83, "model": "django_ukgeo.place", "fields": {"lat": 51.577076, "lng": 0.178319, "name": "Romford", "label": "Romford, Greater London"}}, {"pk": 84, "model": "django_ukgeo.place", "fields": {"lat": 55.8298581, "lng": -4.5428385, "name": "Renfrewshire", "label": "Renfrewshire"}}, {"pk": 85, "model": "django_ukgeo.place", "fields": {"lat": 51.516758, "lng": -0.436786, "name": "Hayes", "label": "Hayes, Greater London"}}, {"pk": 87, "model": "django_ukgeo.place", "fields": {"lat": 50.7314719, "lng": -2.453064, "name": "Charminster", "label": "Charminster, Dorset DT2"}}, {"pk": 88, "model": "django_ukgeo.place", "fields": {"lat": 50.9280143, "lng": -0.4617075, "name": "West Sussex", "label": "West Sussex"}}, {"pk": 90, "model": "django_ukgeo.place", "fields": {"lat": 52.2545225, "lng": -2.2668382, "name": "Worcestershire", "label": "Worcestershire"}}, {"pk": 91, "model": "django_ukgeo.place", "fields": {"lat": 53.2178821, "lng": -0.1999702, "name": "Lincolnshire", "label": "Lincolnshire"}}, {"pk": 92, "model": "django_ukgeo.place", "fields": {"lat": 52.0629009, "lng": -1.339775, "name": "Banbury", "label": "Banbury, Oxfordshire"}}, {"pk": 94, "model": "django_ukgeo.place", "fields": {"lat": 50.5036299, "lng": -4.6524982, "name": "Cornwall", "label": "Cornwall"}}, {"pk": 95, "model": "django_ukgeo.place", "fields": {"lat": 55.864237, "lng": -4.251806, "name": "Glasgow", "label": "Glasgow, Glasgow City"}}, {"pk": 96, "model": "django_ukgeo.place", "fields": {"lat": 51.442108, "lng": -2.856196, "name": "Clevedon", "label": "Clevedon, North Somerset"}}, {"pk": 98, "model": "django_ukgeo.place", "fields": {"lat": 50.794995, "lng": -1.117547, "name": "Gosport", "label": "Gosport, Hampshire"}}, {"pk": 99, "model": "django_ukgeo.place", "fields": {"lat": 51.304309, "lng": 0.47806, "name": "Aylesford", "label": "Aylesford, Kent ME20"}}, {"pk": 101, "model": "django_ukgeo.place", "fields": {"lat": 51.444581, "lng": -0.335246, "name": "Twickenham", "label": "Twickenham, Greater London"}}, {"pk": 103, "model": "django_ukgeo.place", "fields": {"lat": 55.773543, "lng": -3.919354, "name": "Wishaw", "label": "Wishaw, North Lanarkshire"}}, {"pk": 104, "model": "django_ukgeo.place", "fields": {"lat": 51.746774, "lng": -2.2257856, "name": "Gloucestershire", "label": "Gloucestershire"}}, {"pk": 105, "model": "django_ukgeo.place", "fields": {"lat": 51.454513, "lng": -2.58791, "name": "Bristol", "label": "Bristol, City of Bristol"}}, {"pk": 107, "model": "django_ukgeo.place", "fields": {"lat": 55.8289139, "lng": -3.9221958, "name": "North Lanarkshire", "label": "North Lanarkshire"}}, {"pk": 109, "model": "django_ukgeo.place", "fields": {"lat": 51.481581, "lng": -3.17909, "name": "Cardiff", "label": "Cardiff"}}, {"pk": 110, "model": "django_ukgeo.place", "fields": {"lat": 53.163795, "lng": -1.414784, "name": "Clay Cross", "label": "Clay Cross, Derbyshire"}}, {"pk": 111, "model": "django_ukgeo.place", "fields": {"lat": 51.4309209, "lng": -0.0936496, "name": "Greater London", "label": "Greater London"}}, {"pk": 112, "model": "django_ukgeo.place", "fields": {"lat": 51.280233, "lng": 1.0789089, "name": "Canterbury", "label": "Canterbury, Kent"}}, {"pk": 2, "model": "django_ukgeo.place", "fields": {"lat": 51.58861, "lng": 0.0823976, "name": "London Borough of Redbridge", "label": "London Borough of Redbridge, Greater London"}}, {"pk": 27, "model": "django_ukgeo.place", "fields": {"lat": 51.4934557, "lng": 0.3529197, "name": "Thurrock", "label": "Thurrock"}}, {"pk": 32, "model": "django_ukgeo.place", "fields": {"lat": 52.7073029, "lng": -2.7553268, "name": "Shrewsbury", "label": "Shrewsbury, Shropshire"}}, {"pk": 35, "model": "django_ukgeo.place", "fields": {"lat": 51.454513, "lng": -2.58791, "name": "City of Bristol", "label": "Bristol, City of Bristol"}}, {"pk": 38, "model": "django_ukgeo.place", "fields": {"lat": 51.3679705, "lng": -0.070062, "name": "London Borough of Croydon", "label": "London Borough of Croydon, Greater London"}}, {"pk": 43, "model": "django_ukgeo.place", "fields": {"lat": 54.978252, "lng": -1.61778, "name": "Newcastle upon Tyne", "label": "Newcastle upon Tyne, Tyne and Wear"}}, {"pk": 47, "model": "django_ukgeo.place", "fields": {"lat": 51.239021, "lng": -2.387315, "name": "Mells", "label": "Mells, Somerset BA11"}}, {"pk": 51, "model": "django_ukgeo.place", "fields": {"lat": 52.689886, "lng": -1.981771, "name": "Heath Hayes", "label": "Heath Hayes, Staffordshire"}}, {"pk": 54, "model": "django_ukgeo.place", "fields": {"lat": 50.8351605, "lng": -0.1261028, "name": "The City of Brighton and Hove", "label": "The City of Brighton and Hove"}}, {"pk": 59, "model": "django_ukgeo.place", "fields": {"lat": 52.499599, "lng": -1.706495, "name": "Coleshill", "label": "Coleshill, Warwickshire"}}, {"pk": 63, "model": "django_ukgeo.place", "fields": {"lat": 51.5255162, "lng": 0.0352163, "name": "London Borough of Newham", "label": "London Borough of Newham, Greater London"}}, {"pk": 68, "model": "django_ukgeo.place", "fields": {"lat": 51.8072204, "lng": -0.8127664, "name": "Buckinghamshire", "label": "Buckinghamshire"}}, {"pk": 72, "model": "django_ukgeo.place", "fields": {"lat": 51.5946799, "lng": -3.784097, "name": "Port Talbot", "label": "Port Talbot, Neath Port Talbot"}}, {"pk": 75, "model": "django_ukgeo.place", "fields": {"lat": 52.766404, "lng": -0.887126, "name": "Melton Mowbray", "label": "Melton Mowbray, Leicestershire"}}, {"pk": 79, "model": "django_ukgeo.place", "fields": {"lat": 51.375801, "lng": -2.3599039, "name": "Bath", "label": "Bath, Bath and North East Somerset"}}, {"pk": 81, "model": "django_ukgeo.place", "fields": {"lat": 51.869052, "lng": 0.158605, "name": "Bishop's Stortford", "label": "Bishop's Stortford, Hertfordshire"}}, {"pk": 86, "model": "django_ukgeo.place", "fields": {"lat": 55.182978, "lng": -1.5659829, "name": "Ashington", "label": "Ashington, Northumberland"}}, {"pk": 89, "model": "django_ukgeo.place", "fields": {"lat": 55.847258, "lng": -4.440114, "name": "Paisley", "label": "Paisley, Renfrewshire"}}, {"pk": 93, "model": "django_ukgeo.place", "fields": {"lat": 50.929798, "lng": -0.269507, "name": "Henfield", "label": "Henfield, West Sussex BN5"}}, {"pk": 97, "model": "django_ukgeo.place", "fields": {"lat": 51.792888, "lng": -3.988459, "name": "Ammanford", "label": "Ammanford, Carmarthenshire"}}, {"pk": 100, "model": "django_ukgeo.place", "fields": {"lat": 52.520489, "lng": -1.465382, "name": "Nuneaton", "label": "Nuneaton, Warwickshire"}}, {"pk": 102, "model": "django_ukgeo.place", "fields": {"lat": 51.395142, "lng": -2.320591, "name": "Bathampton", "label": "Bathampton, Bath and North East Somerset"}}, {"pk": 106, "model": "django_ukgeo.place", "fields": {"lat": 53.8175053, "lng": -3.0356748, "name": "Blackpool", "label": "Blackpool"}}, {"pk": 108, "model": "django_ukgeo.place", "fields": {"lat": 52.799914, "lng": -1.405404, "name": "Breedon on the Hill", "label": "Breedon on the Hill, Leicestershire DE73"}}]